City_ID,City,Lat,Lng,Max Temp,Humidity,Cloudiness,Wind Speed,Country,Date
0,el granada,37.5027,-122.4694,33.05,58,0,2.06,US,1697662875
1,invercargill,-46.4,168.35,12.23,84,100,7.15,NZ,1697662879
2,arraial do cabo,-22.9661,-42.0278,23.98,83,75,5.66,BR,1697662880
3,waitangi,-43.9535,-176.5597,13.23,80,100,4.47,NZ,1697662880
4,ribeira grande,38.5167,-28.7,22.22,94,75,10.8,PT,1697662880
5,east london,-33.0153,27.9116,19.27,84,95,6.43,ZA,1697662880
6,puerto natales,-51.7236,-72.4875,15.25,47,75,7.2,CL,1697662880
7,saint-denis,48.9167,2.3333,17.45,84,75,8.75,FR,1697662880
8,papatowai,-46.5619,169.4708,12.01,64,100,4.4,NZ,1697662881
9,naze,28.3667,129.4833,16.51,60,0,0.47,JP,1697662881
10,tutoia,-2.7619,-42.2744,26.63,81,100,5.51,BR,1697662881
11,mogocha,53.7333,119.7667,-3.67,77,45,1.78,RU,1697662881
12,cruz del eje,-30.7264,-64.8039,15.06,41,100,5.25,AR,1697662881
13,dudinka,69.4058,86.1778,3.68,98,100,2.68,RU,1697662881
14,san patricio,28.017,-97.5169,29.4,39,2,5.77,US,1697662881
15,vorgashor,67.5833,63.95,0.4,83,48,6.25,RU,1697662882
16,lebu,-37.6167,-73.65,13.72,70,5,6.35,CL,1697662882
17,killingly center,41.8387,-71.8692,16.03,79,98,0.82,US,1697662882
18,oranjemund,-28.55,16.4333,16.81,84,0,1.53,NA,1697662882
19,st. john's,47.5649,-52.7093,8.42,78,75,4.63,CA,1697662677
20,grytviken,-54.2811,-36.5092,3.2,91,100,4.22,GS,1697662882
21,thompson,55.7435,-97.8558,9.09,53,40,3.09,CA,1697662882
22,hamina,60.5697,27.1979,0.74,80,100,4.75,FI,1697662757
23,bethel,41.3712,-73.414,16.37,73,100,0.04,US,1697662808
24,minas de marcona,-15.2119,-75.1103,18.36,71,37,6.22,PE,1697662883
25,wailua homesteads,22.0669,-159.378,27.44,68,40,4.12,US,1697662883
26,port-aux-francais,-49.35,70.2167,3.02,96,100,8.47,TF,1697662883
27,bardai,11.65,7.2333,25.76,28,62,2.8,NG,1697662883
28,adamstown,-25.066,-130.1015,22.56,79,81,2.71,PN,1697662883
29,avarua,-21.2078,-159.775,24.03,60,40,4.12,CK,1697662883
30,chonchi,-42.6128,-73.8092,18.56,67,21,0.65,CL,1697662884
31,bilibino,68.0546,166.4372,-17.8,100,99,0.86,RU,1697662884
32,san pedro,14.35,121.0167,26.57,90,40,2.57,PH,1697662884
33,edinburgh of the seven seas,-37.0676,-12.3116,12.76,92,100,12.23,SH,1697662884
34,igarka,67.4667,86.5833,3.72,98,100,6.97,RU,1697662884
35,qaqortoq,60.7167,-46.0333,-1.79,60,6,1.71,GL,1697662884
36,keflavik,64.0049,-22.5624,10.24,76,0,16.98,IS,1697662884
37,tindouf,27.6711,-8.1474,31.25,16,0,1.03,DZ,1697662885
38,sitka,57.0531,-135.33,12.94,88,100,3.09,US,1697662885
39,weno,7.4515,151.8468,27.97,89,20,1.54,FM,1697662885
40,utrik,11.2278,169.8474,28.38,76,29,7.77,MH,1697662885
41,shingu,33.7333,135.9833,18.32,75,100,1.34,JP,1697662885
42,kerikeri,-35.2268,173.9474,17.17,92,100,0.89,NZ,1697662885
43,carnarvon,-24.8667,113.6333,22.25,59,83,9.08,AU,1697662885
44,iqaluit,63.7506,-68.5145,-1.15,92,100,4.63,CA,1697662885
45,tiksi,71.6872,128.8694,-8.41,97,100,2.12,RU,1697662886
46,georgetown,5.4112,100.3354,26.68,95,20,1.03,MY,1697662838
47,saipan,15.1355,145.701,28.16,81,27,6.64,MP,1697662886
48,ilulissat,69.2167,-51.1,-9.99,73,75,0.51,GL,1697662886
49,ghatanji,20.1333,78.3167,23.88,65,14,1.07,IN,1697662886
50,inarajan village,13.2736,144.7484,26.89,97,58,4.67,GU,1697662886
51,rosarito,32.3333,-117.0333,29.81,63,24,3.19,MX,1697662886
52,jamestown,42.097,-79.2353,13.08,60,100,3.13,US,1697662855
53,bartica,6.4,-58.6167,26.18,75,99,2.09,GY,1697662886
54,talnakh,69.4865,88.3972,3.45,97,100,5.56,RU,1697662887
55,calvi,42.5,8.8333,16.35,88,75,2.06,FR,1697662887
56,albany,42.6001,-73.9662,15.1,71,100,0.9,US,1697662591
57,soran,49.78,72.8506,-0.73,59,37,3.72,KZ,1697662887
58,roma,43.2128,-75.4557,14.65,60,100,3.09,US,1697662706
59,port blair,11.6667,92.75,24.02,94,40,1.54,IN,1697662816
60,coquimbo,-29.9533,-71.3436,17.85,51,0,7.2,CL,1697662824
61,puerto ayora,-0.7393,-90.3518,29.98,92,93,3.58,EC,1697662887
62,carnot,4.9409,15.8665,22.07,93,100,0.11,CF,1697662887
63,taperoa,-7.2075,-36.8267,30.0,28,10,2.72,BR,1697662888
64,anadyr,64.75,177.4833,-10.72,85,0,5.0,RU,1697662888
65,bereket,39.2446,55.5154,17.97,52,5,3.88,TM,1697662888
66,new plymouth,-39.0667,174.0833,15.42,77,17,1.17,NZ,1697662888
67,kapuskasing,49.4169,-82.4331,12.05,58,75,6.17,CA,1697662888
68,akureyri,65.6835,-18.0878,7.96,61,20,2.57,IS,1697662815
69,three points,32.0767,-111.3137,36.46,13,0,3.09,US,1697662888
70,meulaboh,4.1363,96.1285,24.61,91,100,1.39,ID,1697662888
71,olonkinbyen,70.9221,-8.7187,3.51,88,100,10.71,SJ,1697662889
72,queenstown,-31.8976,26.8753,14.44,80,100,1.94,ZA,1697662889
73,ushuaia,-54.8,-68.3,14.81,46,0,6.71,AR,1697662871
74,barakani,-12.1356,44.4317,25.47,85,34,3.48,KM,1697662889
75,tolanaro,-25.0319,46.9987,24.04,88,75,3.09,MG,1697662889
76,veraval,20.9,70.3667,26.94,61,1,2.71,IN,1697662889
77,badger,64.8,-147.5333,-1.68,85,100,4.63,US,1697662890
78,iskateley,67.6803,53.1512,1.12,89,100,4.02,RU,1697662890
79,shihezi,44.3,86.0333,8.96,34,0,0.82,CN,1697662890
80,udachny,66.4167,112.4,-10.86,92,68,2.07,RU,1697662890
81,varto,39.1732,41.4559,9.14,90,100,1.8,TR,1697662890
82,whitehorse,60.7161,-135.0538,7.43,89,100,6.17,CA,1697662889
83,kodiak,57.79,-152.4072,7.44,55,0,6.57,US,1697662891
84,archangelos,36.2149,28.1149,20.99,78,3,5.24,GR,1697662891
85,lerwick,60.1545,-1.1494,10.0,87,63,11.15,GB,1697662891
86,isafjordur,66.0755,-23.124,6.09,81,100,3.37,IS,1697662891
87,atafu village,-8.5421,-172.5159,28.51,72,41,3.72,TK,1697662891
88,remire-montjoly,4.9167,-52.2667,27.02,83,100,3.6,GF,1697662891
89,bredasdorp,-34.5322,20.0403,16.05,93,54,5.07,ZA,1697662891
90,klyuchi,52.2667,79.1667,7.76,46,0,3.72,RU,1697662892
91,ciudad acuna,29.3232,-100.9522,30.32,29,0,8.23,MX,1697662831
92,baiyin,36.5583,104.2081,5.25,68,99,2.55,CN,1697662892
93,jindabyne,-36.4167,148.6333,13.1,54,0,1.04,AU,1697662892
94,muscatine,41.4667,-91.1335,14.5,77,75,0.0,US,1697662892
95,west island,-12.1568,96.8225,25.99,83,75,4.63,CC,1697662892
96,antsohihy,-14.8796,47.9875,25.33,83,29,2.02,MG,1697662892
97,kawalu,-7.3817,108.2082,21.37,91,70,0.55,ID,1697662893
98,bako,5.7833,36.5667,18.19,92,99,1.86,ET,1697662893
99,luderitz,-26.6481,15.1594,15.63,83,23,2.42,NA,1697662893
100,ust-nera,64.5667,143.2,-16.55,91,100,1.79,RU,1697662893
101,hadibu,12.65,54.0333,27.64,77,13,2.87,YE,1697662893
102,hawaiian paradise park,19.5933,-154.9731,28.91,77,50,1.34,US,1697662893
103,kegen,43.0197,79.2203,7.49,46,98,0.79,KZ,1697662893
104,el calafate,-50.3408,-72.2768,11.47,61,53,3.93,AR,1697662893
105,nazca,-14.8333,-74.95,27.68,49,41,3.73,PE,1697662893
106,yellowknife,62.456,-114.3525,6.9,99,100,4.63,CA,1697662873
107,nabire,-3.3667,135.4833,24.06,89,75,1.36,ID,1697662894
108,sinop,41.7711,34.8709,10.16,98,100,2.2,TR,1697662894
109,diboll,31.1871,-94.781,27.34,46,0,4.01,US,1697662894
110,aasiaat,68.7098,-52.8699,-15.44,92,68,2.18,GL,1697662894
111,farasan,16.7022,42.1183,30.63,66,17,1.28,SA,1697662894
112,dakhla,23.6848,-15.958,23.01,88,0,6.17,EH,1697662894
113,ketchikan,55.3422,-131.6461,11.99,95,100,5.59,US,1697662895
114,ancud,-41.8697,-73.8203,11.1,82,12,5.14,CL,1697662895
115,tomaszow mazowiecki,51.5313,20.0086,5.87,65,16,2.21,PL,1697662895
116,magadi,12.9667,77.2333,22.09,76,99,2.37,IN,1697662895
117,yabassi,4.457,9.9682,23.76,97,100,0.35,CM,1697662895
118,mocimboa,-11.3167,40.35,24.05,91,61,2.62,MZ,1697662895
119,quang ngai,15.1167,108.8,24.22,90,100,1.29,VN,1697662896
120,puerto armuelles,8.2833,-82.8667,29.99,72,100,2.24,PA,1697662896
121,lata,40.1629,-8.3327,18.37,95,97,5.12,PT,1697662896
122,bonthe,7.5264,-12.505,26.4,83,73,1.95,SL,1697662896
123,selfoss,63.9331,-20.9971,8.91,80,100,11.44,IS,1697662896
124,olinda,-8.0089,-34.8553,25.85,73,40,5.66,BR,1697662896
125,luanda,-8.8368,13.2343,25.0,88,75,4.63,AO,1697662897
126,duobao,30.67,112.6895,17.86,77,1,7.17,CN,1697662897
127,medina,24.4686,39.6142,32.24,15,0,3.6,SA,1697662897
128,alofi,-19.0595,-169.9187,24.94,57,75,7.72,NU,1697662897
129,moyale,3.5167,39.0584,20.42,86,100,5.82,KE,1697662897
130,port-cartier,50.0334,-66.8654,12.08,65,6,3.21,CA,1697662897
131,margaret river,-33.95,115.0667,9.61,91,51,3.38,AU,1697662897
132,xilin hot,43.9667,116.0333,1.01,51,8,5.43,CN,1697662898
133,samoylovka,51.184,43.7081,5.41,58,100,4.13,RU,1697662898
134,blackmans bay,-43.0167,147.3167,10.29,91,89,0.42,AU,1697662898
135,enewetak,11.3474,162.3373,28.4,78,13,8.06,MH,1697662898
136,colonia,50.9333,6.95,11.99,85,100,3.6,DE,1697662898
137,tazovsky,67.4667,78.7,4.41,93,100,5.82,RU,1697662898
138,gornozavodsk,58.3758,58.3211,2.82,94,100,5.74,RU,1697662899
139,pont rouge,48.8833,-72.0825,14.16,67,3,2.29,CA,1697662899
140,granbury,32.4421,-97.7942,29.6,28,0,6.17,US,1697662789
141,laguna,38.421,-121.4238,32.02,40,0,2.06,US,1697662899
142,sandnessjoen,66.0217,12.6316,1.06,69,0,5.14,NO,1697662899
143,alta,69.9689,23.2717,-1.41,93,75,1.03,NO,1697662899
144,pionerskiy,54.9508,20.2275,10.08,81,100,5.99,RU,1697662899
145,sechura,-5.5569,-80.8222,25.98,59,65,8.89,PE,1697662899
146,nogliki,51.8333,143.1667,5.75,83,100,1.79,RU,1697662900
147,pontianak,-0.0333,109.3333,22.99,100,100,1.03,ID,1697662900
148,ocean shores,46.9737,-124.1563,21.27,71,100,3.09,US,1697662900
149,saldanha,-33.0117,17.9442,20.03,81,27,5.59,ZA,1697662900
150,hermanus,-34.4187,19.2345,16.8,87,55,8.25,ZA,1697662900
151,longyearbyen,78.2186,15.6401,0.91,80,40,9.26,SJ,1697662900
152,saint-philippe,-21.3585,55.7679,24.77,84,92,4.02,RE,1697662900
153,goronyo,13.4423,5.6763,31.73,18,100,3.52,NG,1697662901
154,port douglas,-16.4833,145.4667,23.63,75,94,6.82,AU,1697662901
155,caledonia,42.8078,-87.9242,18.39,63,0,6.69,US,1697662732
156,haiku-pauwela,20.9219,-156.3051,28.98,63,4,3.58,US,1697662901
157,vadso,70.0744,29.7487,0.49,80,40,4.63,NO,1697662901
158,sao luiz gonzaga,-28.4083,-54.9608,15.77,94,100,6.03,BR,1697662901
159,redwood falls,44.5394,-95.1169,15.59,76,100,5.66,US,1697662901
160,port-saint-louis-du-rhone,43.3833,4.8,22.13,73,0,8.23,FR,1697662901
161,sanghar,26.0466,68.9481,26.11,51,35,0.31,PK,1697662902
162,geraldton,-28.7667,114.6,14.23,88,94,2.57,AU,1697662902
163,sainte-anne-des-monts,49.124,-66.4924,9.93,81,5,8.75,CA,1697662902
164,macheng,31.1783,115.0319,18.25,73,1,4.57,CN,1697662902
165,shixing,24.9482,114.0657,22.88,89,100,0.89,CN,1697662902
166,puerto aysen,-45.4,-72.7,16.82,68,72,2.26,CL,1697662902
167,uturoa,-16.7333,-151.4333,26.36,77,27,5.26,PF,1697662902
168,polyarnyy,69.1989,33.4478,1.58,61,100,9.7,RU,1697662902
169,holualoa,19.6228,-155.9522,26.54,71,40,4.12,US,1697662695
170,college,64.8569,-147.8028,-1.63,86,100,4.63,US,1697662903
171,la passe,45.5549,-0.8967,17.21,88,70,4.0,FR,1697662903
172,ad dilam,23.9915,47.1627,28.23,17,0,2.1,SA,1697662903
173,ta`u,-14.2336,-169.5144,26.15,81,100,9.83,AS,1697662903
174,namibe,-15.1961,12.1522,18.09,85,2,2.48,AO,1697662903
175,juan griego,11.0817,-63.9655,29.73,70,13,5.32,VE,1697662903
176,vila franca do campo,37.7167,-25.4333,23.82,99,41,9.12,PT,1697662903
177,bogatic,44.8375,19.4806,9.55,80,98,2.3,RS,1697662904
178,porbandar,21.6422,69.6093,27.23,73,0,3.31,IN,1697662904
179,harper,4.375,-7.7169,25.68,88,20,2.41,LR,1697662904
180,villa mercedes,-33.6757,-65.4578,10.47,72,100,6.65,AR,1697662904
181,kashgar,39.4547,75.9797,13.56,28,20,2.0,CN,1697662904
182,tshikapa,-6.4167,20.8,21.95,95,100,0.61,CD,1697662904
183,lisala,2.15,21.5167,21.19,99,100,1.06,CD,1697662904
184,san juan de miraflores,-12.1629,-76.9635,21.29,83,92,3.93,PE,1697662904
185,cidreira,-30.1811,-50.2056,17.07,75,100,4.53,BR,1697662905
186,nova sintra,14.8667,-24.7167,24.96,70,0,4.53,CV,1697662905
187,lubang,13.8584,120.124,27.84,80,27,8.49,PH,1697662905
188,punta arenas,-53.15,-70.9167,15.06,47,0,9.26,CL,1697662892
189,mount gambier,-37.8333,140.7667,11.77,51,13,2.89,AU,1697662906
190,aykhal,66.0,111.5,-14.41,97,73,1.34,RU,1697662906
191,port lincoln,-34.7333,135.8667,16.71,46,22,3.39,AU,1697662906
192,xai-xai,-25.0519,33.6442,20.83,94,2,2.96,MZ,1697662906
193,jayapura,-2.5333,140.7,23.66,89,75,1.56,ID,1697662906
194,port elizabeth,-33.918,25.5701,18.16,92,75,2.57,ZA,1697662906
195,viedma,-40.8135,-62.9967,25.09,17,59,7.89,AR,1697662906
196,ar rass,25.8694,43.4973,27.58,13,52,5.24,SA,1697662907
197,quellon,-43.1167,-73.6167,12.98,75,48,1.62,CL,1697662907
198,rouissat,31.9243,5.3502,29.04,17,0,3.6,DZ,1697662907
199,scottburgh,-30.2867,30.7532,18.98,91,55,1.68,ZA,1697662907
200,severnoye,56.3491,78.3619,8.32,70,74,4.02,RU,1697662907
201,murray,40.6669,-111.888,23.68,40,0,5.66,US,1697662907
202,roquemaure,44.0494,4.7774,21.2,72,100,6.69,FR,1697662907
203,colonia del sacramento,-34.4667,-57.85,16.07,63,0,6.17,UY,1697662908
204,leava,-14.3,-178.1667,26.6,79,100,9.8,WF,1697662908
205,hasaki,35.7333,140.8333,15.22,69,52,5.61,JP,1697662908
206,saint-pierre,-21.3393,55.4781,24.82,83,100,1.54,RE,1697662908
207,lang son,21.8333,106.7333,21.11,92,100,1.82,VN,1697662908
208,harnai,30.1005,67.9374,19.34,52,0,1.56,PK,1697662908
209,freetown,8.484,-13.2299,26.84,83,75,3.6,SL,1697662908
210,masterton,-40.9597,175.6575,15.49,54,19,1.11,NZ,1697662909
211,richards bay,-28.783,32.0377,19.25,93,3,1.8,ZA,1697662909
212,lospalos,-8.5186,127.0025,20.27,85,47,1.05,TL,1697662909
213,barentu,15.1139,37.5928,26.9,49,6,1.82,ER,1697662910
214,lawrence,38.9717,-95.2353,18.62,40,79,3.5,US,1697662807
215,chongjin,41.7956,129.7758,11.92,61,100,2.35,KP,1697662910
216,medvedevo,56.6339,47.804,2.7,86,34,8.94,RU,1697662910
217,pratt,37.6439,-98.7376,23.2,30,0,5.14,US,1697662910
218,amos,48.5669,-78.1162,9.13,72,100,4.17,CA,1697662911
219,fort bragg,35.139,-79.006,22.12,52,17,1.34,US,1697662912
220,hamilton,39.1834,-84.5333,19.22,56,0,6.17,US,1697662688
221,huanggang,23.677,116.9996,22.94,84,82,2.38,CN,1697662912
222,cajabamba,-7.6167,-78.05,19.46,47,98,3.29,PE,1697662913
223,hajjah,15.6943,43.6058,18.99,69,90,0.43,YE,1697662913
224,prineville,44.2999,-120.8345,28.22,26,0,4.12,US,1697662914
225,auki,-8.7676,160.7034,27.07,76,38,1.37,SB,1697662914
226,aripuana,-9.1667,-60.6333,35.19,36,79,1.15,BR,1697662914
227,juan de ayolas,-27.4,-56.9,22.14,80,88,5.54,PY,1697662914
228,yatou,37.15,122.3833,16.5,77,100,3.5,CN,1697662914
229,vilyuchinsk,52.9306,158.4028,7.18,80,98,4.01,RU,1697662914
230,port mathurin,-19.6833,63.4167,23.54,81,32,4.73,MU,1697662915
231,urangan,-25.3,152.9,20.39,60,46,7.86,AU,1697662915
232,cabo san lucas,22.8909,-109.9124,33.67,67,70,1.79,MX,1697662616
233,carutapera,-1.195,-46.02,25.16,90,36,3.98,BR,1697662915
234,portel,-1.9356,-50.8211,31.36,48,100,1.43,BR,1697662916
235,hoa binh,20.8133,105.3383,22.95,80,97,1.27,VN,1697662916
236,mangai,-4.05,19.5333,21.54,99,100,0.44,CD,1697662916
237,afaahiti,-17.75,-149.2833,23.93,84,95,8.08,PF,1697662917
238,nemuro,43.3236,145.575,14.75,82,100,9.64,JP,1697662917
239,chinde,26.8418,88.0763,12.68,82,0,2.27,NP,1697662917
240,bel ombre,-4.6167,55.4167,26.91,89,40,3.6,SC,1697662917
241,balcarce,-37.8462,-58.2552,19.11,44,55,3.13,AR,1697662918
242,hirara,24.8,125.2833,22.15,83,20,1.54,JP,1697662918
243,lihue,21.9789,-159.3672,27.77,67,40,4.12,US,1697662918
244,taltal,-25.4,-70.4833,19.98,58,21,2.7,CL,1697662918
245,talara,-4.5772,-81.2719,26.42,65,0,8.75,PE,1697662919
246,atascocita,29.9988,-95.1766,29.69,56,20,6.17,US,1697662919
247,novyy urengoy,66.0833,76.6333,4.93,93,100,5.5,RU,1697662919
248,acapulco de juarez,16.8634,-99.8901,29.57,64,100,2.45,MX,1697662822
249,dubti,11.7361,41.0853,30.6,42,43,4.67,ET,1697662919
250,palmer,42.1584,-72.3287,16.03,62,75,1.54,US,1697662919
251,kittila,67.6647,24.8936,-4.92,93,0,4.12,FI,1697662920
252,mont-laurier,46.5501,-75.4993,11.79,63,53,3.29,CA,1697662920
253,taulaga,-11.0553,-171.0883,27.56,80,21,6.84,AS,1697662920
254,mccook,40.2019,-100.6257,23.25,25,0,11.57,US,1697662921
255,byron bay,-28.65,153.6167,15.39,65,78,4.4,AU,1697662922
256,harstad,68.799,16.5293,0.34,95,49,3.58,NO,1697662922
257,pacasmayo,-7.4006,-79.5714,21.75,76,56,7.47,PE,1697662922
258,ulladulla,-35.35,150.4667,14.62,68,1,2.19,AU,1697662728
259,turinsk,58.0458,63.696,6.1,56,4,4.02,RU,1697662923
260,kavaratti,10.5669,72.642,28.28,71,24,2.01,IN,1697662923
261,zinjibar,13.1287,45.3807,28.26,72,1,5.54,YE,1697662923
262,petropavlovsk-kamchatsky,53.0452,158.6483,6.36,88,40,6.0,RU,1697662923
263,talcahuano,-36.7167,-73.1167,15.82,67,20,6.69,CL,1697662923
264,sretensk,52.2453,117.7093,-4.58,60,9,1.34,RU,1697662923
265,aberdeen,57.1437,-2.0981,12.27,79,100,8.23,GB,1697662924
266,debre mark'os,10.35,37.7333,14.82,70,99,2.66,ET,1697662924
267,jauja,-11.7758,-75.4966,12.99,65,85,4.32,PE,1697662924
268,guskhara,23.5,87.75,22.56,77,0,2.37,IN,1697662924
269,christchurch,-43.5333,172.6333,14.07,83,75,1.54,NZ,1697662846
270,kol'chugino,56.3,39.3833,3.87,97,100,1.58,RU,1697662924
271,merizo village,13.2658,144.6691,26.66,97,57,4.56,GU,1697662924
272,jijel,36.8205,5.7667,21.97,64,0,1.03,DZ,1697662925
273,tevriz,57.509,72.4042,8.01,71,99,2.78,RU,1697662925
274,chilca,-12.5211,-76.7372,19.49,88,94,3.3,PE,1697662925
275,matola,-25.9622,32.4589,19.97,93,75,1.54,MZ,1697662925
276,woodward,36.4337,-99.3904,24.98,31,0,7.72,US,1697662925
277,wuyang,31.9925,116.2472,18.82,70,6,3.59,CN,1697662925
278,aktyubinskiy,54.8137,52.8056,3.25,73,67,6.06,RU,1697662926
279,pisco,-13.7,-76.2167,23.03,73,0,7.72,PE,1697662926
280,san fernando de apure,7.8878,-67.4724,29.54,70,100,0.65,VE,1697662926
281,chardara,41.2547,67.9692,16.7,58,9,3.98,KZ,1697662926
282,sayansk,54.1088,102.1648,0.05,86,41,1.64,RU,1697662926
283,minbu,20.1833,94.8833,24.58,76,10,0.16,MM,1697662926
284,salinopolis,-0.6136,-47.3561,27.33,80,17,6.66,BR,1697662926
285,yarmouth,41.7057,-70.2286,16.09,83,100,3.09,US,1697662679
286,trairi,-3.2778,-39.2689,26.0,70,25,3.86,BR,1697662854
287,tura,25.5198,90.2201,19.71,89,0,1.32,IN,1697662927
288,hithadhoo,-0.6,73.0833,26.52,82,69,3.34,MV,1697662927
289,gandajika,-6.75,23.95,21.76,82,96,0.09,CD,1697662927
290,inari,68.906,27.0288,-2.89,96,46,1.68,FI,1697662927
291,parnamirim,-5.9156,-35.2628,27.19,69,40,7.72,BR,1697662928
292,imbituba,-28.24,-48.6703,19.94,82,100,2.99,BR,1697662928
293,kenora,49.8167,-94.4337,10.54,100,100,2.57,CA,1697662928
294,azogues,-2.7333,-78.8333,18.97,80,99,3.22,EC,1697662928
295,mancio lima,-7.6142,-72.8958,32.04,58,40,1.54,BR,1697662928
296,ahmadpur east,29.1431,71.2598,25.28,47,31,2.53,PK,1697662929
297,navalgund,15.5667,75.3667,24.63,53,44,2.43,IN,1697662929
298,mokhsogollokh,61.4681,128.9203,-4.87,87,100,4.04,RU,1697662929
299,mejit,10.2753,170.8646,28.35,77,36,7.19,MH,1697662929
300,manapparai,10.6,78.4167,25.48,87,99,1.04,IN,1697662929
301,waddan,29.1614,16.139,25.52,19,0,3.38,LY,1697662929
302,boali,4.8005,18.1275,23.03,91,85,0.59,CF,1697662929
303,yuzhno-kurilsk,44.0306,145.8556,14.1,58,99,7.47,RU,1697662929
304,mirnyy,62.5353,113.9611,-13.29,98,47,1.57,RU,1697662930
305,gilgit,35.9221,74.3087,13.62,56,47,0.93,PK,1697662930
306,pathein,16.7833,94.7333,24.44,91,21,1.33,MM,1697662930
307,fisterra,42.9049,-9.2629,19.3,85,2,10.44,ES,1697662930
308,mumford,5.2618,-0.759,25.98,86,100,2.91,GH,1697662930
309,katsuren-haebaru,26.3369,127.8719,23.43,72,0,2.06,JP,1697662930
310,tarakan,3.3,117.6333,26.39,82,94,1.6,ID,1697662930
311,kayes,14.0,-11.0,31.16,40,98,1.06,ML,1697662930
312,fortaleza,-3.7227,-38.5247,27.07,74,20,4.63,BR,1697662800
313,albertina,-22.2008,-46.6158,23.41,66,55,3.42,BR,1697662931
314,stanley,54.868,-1.6985,11.55,87,40,6.17,GB,1697662931
315,riachao,-7.3619,-46.6172,32.01,19,96,2.64,BR,1697662931
316,comodoro rivadavia,-45.8667,-67.5,23.92,25,0,4.63,AR,1697662931
317,castillos,-34.1667,-53.8333,13.58,74,32,3.5,UY,1697662931
318,kamiiso,41.8167,140.65,15.86,91,100,7.07,JP,1697662931
319,sao miguel do araguaia,-13.275,-50.1628,35.67,15,10,2.12,BR,1697662836
320,nuuk,64.1835,-51.7216,-3.66,74,75,8.75,GL,1697662932
321,hollidaysburg,40.4273,-78.3889,14.02,65,100,0.0,US,1697662932
322,machico,32.7,-16.7667,23.89,78,20,1.03,PT,1697662932
323,kitimat,54.0524,-128.6534,13.21,62,100,3.58,CA,1697662932
324,bocas del toro,9.3333,-82.25,27.9,73,85,2.24,PA,1697662700
325,andovoranto,-18.95,49.1,22.82,95,100,1.99,MG,1697662932
326,hell-ville,-13.4,48.2667,26.63,73,9,1.63,MG,1697662933
327,blagoevgrad,42.0167,23.1,9.61,93,48,0.45,BG,1697662933
328,chernyshevskiy,63.0128,112.4714,-9.97,94,92,1.02,RU,1697662933
329,vila velha,-20.3297,-40.2925,24.97,73,100,5.14,BR,1697662747
330,chibougamau,49.9168,-74.3659,12.79,50,75,7.2,CA,1697662933
331,shagonar,51.5333,92.8,5.71,76,0,1.0,RU,1697662933
332,meadow lake,34.8014,-106.5436,29.33,16,0,4.19,US,1697662934
333,nar'yan-mar,67.6713,53.087,1.17,89,100,4.02,RU,1697662934
334,dalai,45.5,124.3,5.45,51,0,4.91,CN,1697662934
335,mahina,-17.5065,-149.489,24.87,78,75,2.57,PF,1697662934
336,kuressaare,58.2481,22.5039,1.12,85,40,3.09,EE,1697662934
337,arauco,-37.2463,-73.3175,13.36,74,7,2.93,CL,1697662934
338,walvis bay,-22.9575,14.5053,15.53,82,22,3.09,NA,1697662934
339,happy valley-goose bay,53.3168,-60.3315,8.17,61,75,5.14,CA,1697662819
340,hammerfest,70.6634,23.6821,1.25,64,75,4.12,NO,1697662880
341,portland,45.5234,-122.6762,22.47,61,8,0.89,US,1697662935
342,hailar,49.2,119.7,-2.25,54,18,3.88,CN,1697662935
343,fada,9.5667,8.3,22.01,90,100,0.74,NG,1697662935
344,usinsk,65.9939,57.5281,1.71,97,100,5.81,RU,1697662935
345,oroqen zizhiqi,50.5667,123.7167,0.07,59,10,4.29,CN,1697662935
346,tocopilla,-22.092,-70.1979,21.47,64,21,6.45,CL,1697662915
347,tercan,39.7794,40.3925,10.99,78,100,3.34,TR,1697662936
348,valdivia,-39.8142,-73.2459,15.05,81,80,2.45,CL,1697662936
349,rexburg,43.826,-111.7897,18.63,37,0,4.12,US,1697662936
350,new norfolk,-42.7826,147.0587,10.95,63,97,1.01,AU,1697662936
351,prado,-17.3411,-39.2208,24.54,78,12,5.6,BR,1697662936
352,kingscliff,-28.2667,153.5667,19.29,68,100,4.63,AU,1697662937
353,kourou,5.1552,-52.6478,27.03,78,76,5.06,GF,1697662937
354,uttarkashi,30.7333,78.45,12.98,54,0,2.9,IN,1697662937
355,gadzhiyevo,69.2551,33.3362,1.35,61,100,9.46,RU,1697662937
356,hilo,19.7297,-155.09,28.47,72,20,3.6,US,1697662686
357,tahe,52.3333,124.7333,-0.66,61,67,5.33,CN,1697662937
358,"laikit, laikit ii (dimembe)",1.4792,124.9735,20.47,94,20,1.03,ID,1697662937
359,az zuwaytinah,30.9522,20.1202,24.69,42,0,2.25,LY,1697662938
360,yilan,24.757,121.753,26.09,92,84,1.26,TW,1697662914
361,penzance,50.1186,-5.5371,15.38,93,86,6.53,GB,1697662909
362,al ghayzah,16.2079,52.176,26.8,78,11,3.17,YE,1697662938
363,toliara,-23.35,43.6667,22.89,86,90,1.22,MG,1697662938
364,norderney,53.7,7.15,8.88,67,100,13.65,DE,1697662938
365,menaka,15.9182,2.4022,34.41,14,28,2.97,ML,1697662939
366,tongouson,5.0214,120.1328,27.56,79,95,2.21,PH,1697662939
367,ado-ekiti,7.621,5.2215,23.46,92,83,0.8,NG,1697662939
368,maisi,43.0395,41.2621,10.37,95,100,0.47,GE,1697662939
369,balotra,25.8333,72.2333,26.54,41,0,2.96,IN,1697662939
370,arno,60.1167,18.6333,4.32,78,61,3.72,SE,1697662939
371,mar del plata,-38.0023,-57.5575,15.29,58,0,5.66,AR,1697662867
372,kharp,66.8014,65.8081,-1.38,97,83,1.97,RU,1697662940
373,pushchino,54.8339,37.6264,3.84,81,100,4.92,RU,1697662940
374,vel'sk,61.0701,42.0983,2.37,90,100,1.79,RU,1697662940
375,vanimo,-2.6741,141.3028,25.55,86,77,0.96,PG,1697662885
376,batang,-6.4846,110.7083,25.71,82,15,1.93,ID,1697662940
377,zhezqazghan,47.7833,67.7667,9.58,44,52,3.23,KZ,1697662940
378,fenoarivo atsinanana,-17.3667,49.4167,23.07,94,42,2.05,MG,1697662940
379,odda,60.0691,6.5457,6.54,83,100,4.02,NO,1697662941
380,eirunepe,-6.6603,-69.8736,34.41,42,66,1.83,BR,1697662941
381,margate,51.3813,1.3862,16.06,94,100,3.58,GB,1697662898
382,revda,56.801,59.9303,2.3,80,93,6.29,RU,1697662941
383,umm kaddadah,13.6017,26.6876,28.59,15,100,5.69,SD,1697662941
384,cabedelo,-6.9811,-34.8339,27.37,72,27,7.19,BR,1697662942
385,burgersdorp,-30.9977,26.3286,15.61,64,82,3.74,ZA,1697662942
386,huanuni,-18.2667,-66.85,16.27,49,81,6.05,BO,1697662942
387,alta sierra,35.7291,-118.5495,23.77,25,0,2.57,US,1697662942
388,san antonio de pale,-1.4014,5.6325,25.98,82,100,2.54,GQ,1697662942
389,kidal,18.4411,1.4078,31.76,13,8,3.37,ML,1697662943
390,xiaoweizhai,26.1903,107.5125,18.1,98,72,1.01,CN,1697662943
391,igarape miri,-1.975,-48.9597,29.41,66,84,3.2,BR,1697662943
392,sinabang,2.4803,96.3801,25.59,85,100,0.59,ID,1697662943
393,tual,-5.6667,132.75,26.7,76,11,4.46,ID,1697662943
394,nagqu,31.5,92.0,-6.62,91,100,1.69,CN,1697662943
395,bamyan,34.75,67.25,0.59,82,2,0.69,AF,1697662943
396,vyyezdnoye,55.3815,43.7864,3.63,92,96,2.68,RU,1697662943
397,dondukovskaya,44.8819,40.3627,12.47,56,100,2.13,RU,1697662944
398,tazacorte,28.629,-17.9293,24.54,78,75,2.68,ES,1697662944
399,kone,-21.0595,164.8658,21.81,61,1,2.89,NC,1697662944
400,tuy hoa,13.0833,109.3,24.39,91,96,2.05,VN,1697662945
401,turan,16.0678,108.2208,24.99,94,40,0.0,VN,1697662945
402,linxia chengguanzhen,35.6003,103.2064,5.2,87,100,0.7,CN,1697662945
403,santo antonio do ica,-3.1022,-67.9397,32.98,51,79,1.17,BR,1697662946
404,kudahuvadhoo,2.6708,72.8944,27.55,74,68,4.24,MV,1697662835
405,mujiayingzi,42.1167,118.7833,5.73,35,0,2.99,CN,1697662946
406,tralee,52.2704,-9.7026,12.09,96,74,1.38,IE,1697662946
407,agat village,13.3886,144.6585,26.87,97,55,4.37,GU,1697662946
408,suva,-18.1416,178.4415,25.71,73,40,4.63,FJ,1697662946
409,mogadishu,2.0371,45.3438,26.66,85,87,4.48,SO,1697662946
410,vernon,50.2581,-119.2691,17.2,71,100,2.06,CA,1697662807
411,labytnangi,66.6572,66.4183,-0.87,92,24,3.43,RU,1697662947
412,qamdo,31.1667,97.2333,-4.84,85,23,2.95,CN,1697662947
413,wafangdian,39.6183,122.0081,10.99,85,100,1.6,CN,1697662947
414,lusambo,-4.9667,23.45,21.43,95,81,0.48,CD,1697662947
415,grand falls-windsor,48.9332,-55.6649,8.06,72,86,3.27,CA,1697662947
416,labrador city,52.9463,-66.9114,8.95,46,0,5.14,CA,1697662947
417,berezovyy,51.6667,135.7,2.48,94,100,0.97,RU,1697662948
418,rio grande,-32.035,-52.0986,19.06,69,88,5.4,BR,1697662789
419,ixtapa,20.7,-105.2,29.57,73,100,0.89,MX,1697662948
420,qarazhal,48.0078,70.7903,9.11,48,41,3.2,KZ,1697662948
421,fort st. john,56.2499,-120.8529,14.94,51,75,10.8,CA,1697662835
422,keetmanshoop,-26.5833,18.1333,26.51,11,0,3.09,NA,1697662948
423,mount isa,-20.7333,139.5,21.87,16,4,4.12,AU,1697662949
424,kapa'a,22.0752,-159.319,28.18,67,40,4.12,US,1697662779
425,monze,-16.2833,27.4833,23.01,61,17,2.77,ZM,1697662949
426,ponta delgada,37.7333,-25.6667,23.99,88,40,8.75,PT,1697662949
427,victorica,-36.2151,-65.4359,12.25,68,100,3.63,AR,1697662949
428,bovalino,38.149,16.174,23.94,82,65,1.89,IT,1697662949
429,pikalevo,59.5183,34.1664,4.21,87,100,1.71,RU,1697662949
430,saint-joseph,-21.3667,55.6167,24.21,85,91,2.76,RE,1697662950
431,camacupa,-12.0167,17.4833,19.64,71,12,2.58,AO,1697662950
432,mount pearl,47.5166,-52.7813,7.96,78,75,4.63,CA,1697662717
433,nova vicosa,-17.8919,-39.3719,24.96,76,3,6.01,BR,1697662946
434,asosa,10.0667,34.5333,16.73,89,91,1.27,ET,1697662950
435,neiafu,-18.65,-173.9833,23.56,60,12,7.39,TO,1697662950
436,yass,-34.8333,148.9167,11.93,87,0,0.89,AU,1697662950
437,isabel segunda,18.1491,-65.4427,31.58,84,10,1.34,PR,1697662950
438,ma'rib,15.4591,45.3253,23.02,25,0,0.76,YE,1697662950
439,mir bachah kot,34.75,69.119,12.19,45,0,1.01,AF,1697662951
440,senekal,-28.3197,27.6208,16.67,39,0,1.94,ZA,1697662951
441,nizao,18.25,-70.2,33.04,68,1,5.29,DO,1697662951
442,fale old settlement,-9.3852,-171.2468,28.31,72,99,3.29,TK,1697662951
443,lorengau,-2.0226,147.2712,27.12,77,63,1.29,PG,1697662951
444,juneau,58.3019,-134.4197,11.0,95,100,5.66,US,1697662745
445,sisimiut,66.9395,-53.6735,-4.7,82,100,6.65,GL,1697662952
446,taos,36.4072,-105.5731,26.1,15,0,1.54,US,1697662952
447,ola,59.5833,151.2833,-1.99,44,5,3.17,RU,1697662952
448,opuwo,-18.0607,13.84,22.2,25,0,3.67,NA,1697662952
449,la palma,33.8464,-118.0467,39.73,65,0,3.6,US,1697662952
450,ar ruways,24.1103,52.7306,29.17,64,0,2.67,AE,1697662952
451,saryozek,44.3583,77.9753,10.7,43,23,0.77,KZ,1697662952
452,ulsteinvik,62.3432,5.8487,5.42,81,3,3.13,NO,1697662953
453,paungde,18.4833,95.5,23.55,94,77,0.76,MM,1697662953
454,ceeldheer,3.8488,47.1806,27.1,78,31,3.78,SO,1697662953
455,jilib,0.4883,42.7854,25.37,85,98,2.12,SO,1697662953
456,nadym,65.5333,72.5167,4.72,88,100,4.52,RU,1697662953
457,kantunilkin,21.0917,-87.45,29.88,42,94,3.41,MX,1697662954
458,kannur,11.8675,75.3576,25.69,86,80,1.06,IN,1697662954
459,kalinkavichy,52.1323,29.3257,6.6,76,85,4.44,BY,1697662954
460,chililabombwe,-12.3648,27.8229,21.41,64,100,2.86,ZM,1697662830
461,louis trichardt,-23.0439,29.9032,16.17,77,0,2.7,ZA,1697662844
462,lautoka,-17.6167,177.4667,26.92,65,20,1.54,FJ,1697662955
463,isangel,-19.55,169.2667,24.46,87,92,1.76,VU,1697662955
464,el matama,16.7095,33.3565,34.17,31,88,2.37,SD,1697662955
465,north bend,43.4065,-124.2243,22.73,94,0,3.6,US,1697662955
466,nishinoomote,30.7333,131.0,21.4,61,0,1.67,JP,1697662955
467,kuala belait,4.5833,114.1833,24.09,89,100,3.23,BN,1697662955
468,lamu,-2.2717,40.902,27.12,88,99,4.22,KE,1697662955
469,aureilhan,43.2434,0.0958,17.39,88,0,3.09,FR,1697662956
470,crane,31.3974,-102.3501,32.15,17,4,2.03,US,1697662956
471,brisas de zicatela,15.8369,-97.0419,28.91,65,92,3.03,MX,1697662956
472,val-d'or,48.1002,-77.7828,9.05,76,100,4.12,CA,1697662956
473,carqueiranne,43.0953,6.073,19.39,78,100,8.95,FR,1697662956
474,bamboo flat,11.7,92.7167,24.05,94,40,1.54,IN,1697662957
475,mpophomeni,-29.5682,30.1862,13.85,98,22,0.95,ZA,1697662957
476,kiomboi,-4.2667,34.3667,21.81,50,34,3.23,TZ,1697662957
477,newman,37.3138,-121.0208,31.7,21,0,0.98,US,1697662957
478,jakar,27.5492,90.7525,6.48,91,40,0.9,BT,1697662957
479,sanctuary point,-35.1114,150.629,15.97,74,3,2.19,AU,1697662957
480,ballina,-28.8667,153.5667,15.43,64,76,4.09,AU,1697662909
481,lompoc,34.6391,-120.4579,28.34,61,20,3.09,US,1697662958
482,qarqaraly,49.4058,75.4742,6.5,51,0,3.55,KZ,1697662958
483,anka,12.1138,5.9243,29.4,22,91,3.48,NG,1697662958
484,port saint john's,-31.6229,29.5448,18.99,79,13,3.52,ZA,1697662958
485,thanh pho uong bi,21.0333,106.7833,25.99,82,100,0.89,VN,1697662958
486,vostochnyy,55.8167,37.8667,5.2,96,100,3.79,RU,1697662958
487,jiagedaqi,50.4167,124.1167,-0.24,64,11,3.47,CN,1697662958
488,tres arroyos,-38.3739,-60.2798,18.75,43,70,3.34,AR,1697662959
489,novyy urgal,51.0736,132.5642,3.33,92,91,1.73,RU,1697662959
490,mandali,33.7499,45.5541,23.78,36,38,3.04,IQ,1697662959
491,cortina d'ampezzo,46.5384,12.1377,7.72,91,99,0.86,IT,1697662959
492,alice springs,-23.7,133.8833,9.75,29,0,2.06,AU,1697662959
493,al bardiyah,31.7561,25.0865,22.77,57,0,2.17,LY,1697662959
494,mwinilunga,-11.7358,24.4293,20.53,62,100,0.54,ZM,1697662959
495,zhenlai,45.8495,123.2973,5.52,50,0,5.48,CN,1697662959
496,misungwi,-2.85,33.0833,24.14,60,100,0.72,TZ,1697662960
497,jinxiang,27.4327,120.6062,19.08,85,33,1.9,CN,1697662960
498,orsa,54.5153,30.4053,4.09,95,72,4.69,BY,1697662960
499,gremda,34.75,10.7833,24.11,64,0,1.03,TN,1697662960
500,north madison,38.7678,-85.3966,19.6,56,40,4.12,US,1697662960
501,machina,13.1364,10.0492,30.94,17,100,3.86,NG,1697662960
502,rabaul,-4.1967,152.1721,26.36,81,24,2.08,PG,1697662961
503,nadi,-17.8,177.4167,27.0,65,20,1.54,FJ,1697662961
504,pandan,14.0453,124.1694,26.45,88,92,2.67,PH,1697662961
505,hovd,48.0056,91.6419,2.87,40,0,0.32,MN,1697662961
506,puerto baquerizo moreno,-0.9,-89.6,27.55,74,75,7.2,EC,1697662961
507,paragominas,-2.9667,-47.4833,28.39,56,44,2.14,BR,1697662955
508,nurabad,34.0734,47.9725,11.22,39,7,2.38,IR,1697662961
509,sawakin,19.1059,37.3321,28.46,71,12,3.4,SD,1697662962
510,kolondieba,11.0882,-6.8926,26.85,63,38,1.69,ML,1697662962
511,diffa,13.3154,12.6113,31.18,18,100,3.72,NE,1697662962
512,bandon,51.7469,-8.7425,11.77,96,63,1.99,IE,1697662962
513,vila do maio,15.1333,-23.2167,27.44,74,9,4.64,CV,1697662962
514,praia da vitoria,38.7333,-27.0667,23.14,88,75,11.09,PT,1697662962
515,linqiong,30.4159,103.4609,14.9,81,100,3.03,CN,1697662962
516,siraha,26.6541,86.2087,20.78,77,0,0.6,NP,1697662963
517,lishui,28.4604,119.9103,16.22,95,8,0.68,CN,1697662963
518,raymondville,26.4815,-97.7831,30.61,29,28,4.36,US,1697662963
519,iskushuban,10.2837,50.23,26.09,76,58,3.91,SO,1697662963
520,ascension,30.2169,-90.9001,25.56,39,0,3.09,US,1697662963
521,boyolangu,-8.1181,111.8935,23.35,95,98,1.94,ID,1697662963
522,oskarshamn,57.2645,16.4484,6.62,62,100,3.99,SE,1697662963
523,vershino-darasunskiy,52.35,115.5167,-3.1,60,67,2.0,RU,1697662963
524,timbuktu,16.7735,-3.0074,35.08,16,23,2.93,ML,1697662964
525,illapel,-31.6308,-71.1653,20.44,41,0,3.36,CL,1697662955
526,cristalina,-16.7686,-47.6136,28.15,24,18,1.77,BR,1697662964
527,suntar,62.1444,117.6319,-9.36,91,51,2.68,RU,1697662964
528,rawson,-43.3002,-65.1023,30.16,10,0,9.77,AR,1697662865
529,changji,44.0167,87.3167,6.44,61,0,1.0,CN,1697662964
530,conde,-7.2597,-34.9075,26.7,69,40,6.17,BR,1697662964
531,la'ie,21.6477,-157.9253,30.03,66,3,1.34,US,1697662964
532,bandarbeyla,9.4942,50.8122,27.07,80,25,2.37,SO,1697662965
533,porto murtinho,-21.6989,-57.8825,34.33,39,73,0.9,BR,1697662965
534,khandyga,62.6667,135.6,-4.91,96,100,2.03,RU,1697662965
535,inhambane,-23.865,35.3833,20.65,92,0,3.12,MZ,1697662943
536,thunder bay,48.4001,-89.3168,11.99,76,100,3.6,CA,1697662810
537,nakatsugawa,35.4833,137.5,10.06,66,31,2.09,JP,1697662965
538,boguchany,58.3814,97.4531,2.14,79,98,1.34,RU,1697662966
539,buka,40.8108,69.1986,17.23,48,100,1.41,UZ,1697662966
540,nikolayevsk-on-amure,53.1406,140.73,5.06,97,100,0.6,RU,1697662966
541,susuman,62.7833,148.1667,-17.23,81,100,0.89,RU,1697662966
542,ak'ordat,15.5486,37.8867,29.89,48,18,0.87,ER,1697662966
543,al jawf,29.5,38.75,20.53,34,0,2.79,SA,1697662966
544,brokopondo,4.75,-55.1667,31.68,56,60,1.8,SR,1697662967
545,san andres,12.5847,-81.7006,30.01,79,20,3.6,CO,1697662967
546,wamba,8.9333,8.6,24.66,85,99,1.08,NG,1697662967
547,antofagasta,-23.65,-70.4,18.6,87,52,7.31,CL,1697662826
548,zhalantun,48.0,122.7167,1.42,59,10,2.67,CN,1697662967
549,tamanrasset,22.785,5.5228,23.95,16,0,2.06,DZ,1697662967
550,sittwe,20.15,92.9,25.05,82,94,2.61,MM,1697662967
551,bathsheba,13.2167,-59.5167,31.34,70,40,6.17,BB,1697662968
552,el idrissia,34.4454,2.5275,21.53,24,6,4.69,DZ,1697662968
553,bikenibeu village,1.3673,173.1241,23.98,94,100,4.12,KI,1697662968
554,touros,-5.1989,-35.4608,25.58,74,1,6.72,BR,1697662968
555,gebeit,21.0667,36.3167,23.75,51,2,2.8,SD,1697662968
556,sheksna,59.21,38.5107,-0.02,85,99,2.35,RU,1697662968
557,qashyr,53.0675,76.1036,9.81,46,56,3.41,KZ,1697662968
558,urengoy,65.9667,78.3667,8.39,84,100,6.26,RU,1697662969
559,illizi,26.4833,8.4667,27.89,15,96,1.42,DZ,1697662948
560,horta,38.5333,-28.6333,21.8,91,75,10.8,PT,1697662743
561,ballycastle,55.2044,-6.243,12.52,79,100,13.35,GB,1697662969
562,ormara,25.2088,64.6357,25.98,77,0,2.98,PK,1697662969
563,al hufuf,25.3646,49.5653,28.19,57,0,2.06,SA,1697662969
564,jabor,5.921,169.6434,27.42,79,95,5.3,MH,1697662969
565,klaksvik,62.2266,-6.589,8.51,89,100,14.66,FO,1697662970
566,olenino,56.2092,33.4889,3.39,97,100,1.07,RU,1697662970
567,zhaotong,27.3167,103.7167,14.03,85,100,1.26,CN,1697662835
568,cockburn town,21.4612,-71.1419,29.18,74,4,5.28,TC,1697662919
569,ust-tsilma,65.441,52.1498,3.12,89,100,2.68,RU,1697662970
570,ugoofaaru,5.6667,73.0,27.01,78,97,3.34,MV,1697662970
571,manadhoo,5.7667,73.3833,26.71,78,96,3.82,MV,1697662970
572,grand haven,43.0631,-86.2284,19.71,57,40,5.66,US,1697662971
573,dryden,49.7833,-92.7503,11.16,82,100,0.0,CA,1697662971
574,ribeira brava,32.65,-17.0667,23.89,71,100,4.97,PT,1697662972
575,nelson bay,-32.7167,152.15,17.78,86,100,1.34,AU,1697662972
576,guerrero negro,27.9769,-114.0611,26.91,43,45,6.47,MX,1697662972
577,narrabri,-30.3167,149.7833,15.29,65,0,0.89,AU,1697662973
578,sai buri,6.7013,101.6168,24.73,91,99,1.63,TH,1697662973
579,magadan,59.5667,150.8,-2.32,75,10,4.92,RU,1697662973
580,traverse city,44.7631,-85.6206,18.06,58,78,0.45,US,1697662811
581,mugia,43.1041,-9.2179,19.39,85,10,10.74,ES,1697662973
582,buala,-8.145,159.5921,27.25,79,91,1.92,SB,1697662973
583,white river,-25.3318,31.0117,16.53,100,0,1.54,ZA,1697662974
